Timestamp,roll,pitch,heading,rollRate,pitchRate,yawRate,groundSpeed,airSpeed,airSpeedSetpoint,climbRate,altitudeRelative,altitudeAMSL,altitudeAboveTerr,altitudeTuning,altitudeTuningSetpoint,xTrackError,rangeFinderDist,flightDistance,flightTime,distanceToHome,timeToHome,missionItemIndex,headingToNextWP,distanceToNextWP,headingToHome,distanceToGCS,throttlePct,imuTemp,hobbs,apmSubInfo.cameraTilt,apmSubInfo.tetherTurns,apmSubInfo.lights1,apmSubInfo.lights2,apmSubInfo.pilotGain,apmSubInfo.inputHold,apmSubInfo.rollPitchToggle,apmSubInfo.rangefinderDistance,battery0.id,battery0.batteryFunction,battery0.batteryType,battery0.voltage,battery0.current,battery0.mahConsumed,battery0.temperature,battery0.percentRemaining,battery0.timeRemaining,battery0.timeRemainingStr,battery0.chargeState,battery0.instantPower,clock.currentTime,clock.currentUTCTime,clock.currentDate,distanceSensor.rotationNone,distanceSensor.rotationYaw45,distanceSensor.rotationYaw90,distanceSensor.rotationYaw135,distanceSensor.rotationYaw180,distanceSensor.rotationYaw225,distanceSensor.rotationYaw270,distanceSensor.rotationYaw315,distanceSensor.rotationPitch90,distanceSensor.rotationPitch270,distanceSensor.minDistance,distanceSensor.maxDistance,efi.health,efi.ecuIndex,efi.rpm,efi.fuelConsumed,efi.fuelFlow,efi.engineLoad,efi.sparkTime,efi.throttlePos,efi.baroPress,efi.intakePress,efi.intakeTemp,efi.cylinderTemp,efi.ignTime,efi.exGasTemp,efi.injTime,efi.throttleOut,efi.ptComp,escStatus.index,escStatus.rpm1,escStatus.rpm2,escStatus.rpm3,escStatus.rpm4,escStatus.current1,escStatus.current2,escStatus.current3,escStatus.current4,escStatus.voltage1,escStatus.voltage2,escStatus.voltage3,escStatus.voltage4,estimatorStatus.goodAttitudeEsimate,estimatorStatus.goodHorizVelEstimate,estimatorStatus.goodVertVelEstimate,estimatorStatus.goodHorizPosRelEstimate,estimatorStatus.goodHorizPosAbsEstimate,estimatorStatus.goodVertPosAbsEstimate,estimatorStatus.goodVertPosAGLEstimate,estimatorStatus.goodConstPosModeEstimate,estimatorStatus.goodPredHorizPosRelEstimate,estimatorStatus.goodPredHorizPosAbsEstimate,estimatorStatus.gpsGlitch,estimatorStatus.accelError,estimatorStatus.velRatio,estimatorStatus.horizPosRatio,estimatorStatus.vertPosRatio,estimatorStatus.magRatio,estimatorStatus.haglRatio,estimatorStatus.tasRatio,estimatorStatus.horizPosAccuracy,estimatorStatus.vertPosAccuracy,generator.status,generator.genSpeed,generator.batteryCurrent,generator.loadCurrent,generator.powerGenerated,generator.busVoltage,generator.batCurrentSetpoint,generator.rectifierTemp,generator.genTemp,generator.runtime,generator.timeMaintenance,gps.lat,gps.lon,gps.mgrs,gps.hdop,gps.vdop,gps.courseOverGround,gps.lock,gps.count,gps2.lat,gps2.lon,gps2.mgrs,gps2.hdop,gps2.vdop,gps2.courseOverGround,gps2.lock,gps2.count,hygrometer.temperature,hygrometer.humidity,hygrometer.hygrometerid,localPosition.x,localPosition.y,localPosition.z,localPosition.vx,localPosition.vy,localPosition.vz,localPositionSetpoint.x,localPositionSetpoint.y,localPositionSetpoint.z,localPositionSetpoint.vx,localPositionSetpoint.vy,localPositionSetpoint.vz,setpoint.roll,setpoint.pitch,setpoint.yaw,setpoint.rollRate,setpoint.pitchRate,setpoint.yawRate,temperature.temperature1,temperature.temperature2,temperature.temperature3,terrain.blocksPending,terrain.blocksLoaded,vibration.xAxis,vibration.yAxis,vibration.zAxis,vibration.clipCount1,vibration.clipCount2,vibration.clipCount3,wind.direction,wind.speed,wind.verticalSpeed
2025-02-26 12:03:19.708,-4.4,-3.7,246,0.0,0.0,0.0,0.0,0.0,0.000,-0.0,0.0,0.0,--.--,0.000,-326.958,0.000,0.000,0.0,00:00:00,0.0,0.0,0,--.--,0,0,0.0,0,28,0000:08:29,50.000,0.000,50.000,50.000,50.000,0.000,0.000,0.00,0,0,0,0.47,-159.63,-2719,--.--,--.--,--.--,--:--:--,1,-75.66,12:03:19,11:03:19,2/26/2025,--.--,--.--,--.--,--.--,--.--,--.--,--.--,--.--,--.--,--.--,--.--,--.--,0,--.--,--.--,--.--,--.--,--.--,--.--,--.--,--.--,--.--,--.--,--.--,--.--,--.--,--.--,--.--,--.--,0,0.000,0.000,0.000,0.000,0.000,0.000,0.000,0.000,0.000,0.000,0.000,0.000,false,false,false,false,false,false,false,false,false,false,false,false,--.--,--.--,--.--,--.--,--.--,--.--,--.--,--.--,0,0,--.--,--.--,--.--,--.--,--.--,0,0,0,0,0.0000000,0.0000000,31NAA 66021 00000,--.--,--.--,0.0,0,0,--.--,--.--,,--.--,--.--,--.--,0,0,--.--,--.--,0,--.--,--.--,--.--,--.--,--.--,--.--,--.--,--.--,--.--,--.--,--.--,--.--,--.--,--.--,--.--,--.--,--.--,--.--,24.22,--.--,--.--,0,0,0.0,0.0,0.0,0,0,0,--.--,--.--,--.--
2025-02-26 12:03:20.702,-4.4,-3.7,246,0.0,0.0,0.0,0.0,0.0,0.000,-0.0,0.0,0.0,--.--,0.000,-326.930,0.000,0.000,0.0,00:00:00,0.0,0.0,0,--.--,0,0,0.0,0,28,0000:08:29,50.000,0.000,50.000,50.000,50.000,0.000,0.000,0.00,0,0,0,0.47,-159.65,-2763,--.--,--.--,--.--,--:--:--,1,-75.67,12:03:20,11:03:20,2/26/2025,--.--,--.--,--.--,--.--,--.--,--.--,--.--,--.--,--.--,--.--,--.--,--.--,0,--.--,--.--,--.--,--.--,--.--,--.--,--.--,--.--,--.--,--.--,--.--,--.--,--.--,--.--,--.--,--.--,0,0.000,0.000,0.000,0.000,0.000,0.000,0.000,0.000,0.000,0.000,0.000,0.000,false,false,false,false,false,false,false,false,false,false,false,false,--.--,--.--,--.--,--.--,--.--,--.--,--.--,--.--,0,0,--.--,--.--,--.--,--.--,--.--,0,0,0,0,0.0000000,0.0000000,31NAA 66021 00000,--.--,--.--,0.0,0,0,--.--,--.--,,--.--,--.--,--.--,0,0,--.--,--.--,0,--.--,--.--,--.--,--.--,--.--,--.--,--.--,--.--,--.--,--.--,--.--,--.--,--.--,--.--,--.--,--.--,--.--,--.--,24.25,--.--,--.--,0,0,0.0,0.0,0.0,0,0,0,--.--,--.--,--.--
2025-02-26 12:03:21.703,-4.4,-3.7,246,0.0,0.0,0.0,0.0,0.0,0.000,-0.0,0.0,0.0,--.--,0.000,-326.916,0.000,0.000,0.0,00:00:02,0.0,0.0,0,--.--,0,0,0.0,0,28,0000:08:29,50.000,0.000,50.000,50.000,50.000,0.000,0.000,0.00,0,0,0,0.47,-159.63,-2807,--.--,--.--,--.--,--:--:--,1,-75.66,12:03:21,11:03:21,2/26/2025,--.--,--.--,--.--,--.--,--.--,--.--,--.--,--.--,--.--,--.--,--.--,--.--,0,--.--,--.--,--.--,--.--,--.--,--.--,--.--,--.--,--.--,--.--,--.--,--.--,--.--,--.--,--.--,--.--,0,0.000,0.000,0.000,0.000,0.000,0.000,0.000,0.000,0.000,0.000,0.000,0.000,false,false,false,false,false,false,false,false,false,false,false,false,--.--,--.--,--.--,--.--,--.--,--.--,--.--,--.--,0,0,--.--,--.--,--.--,--.--,--.--,0,0,0,0,0.0000000,0.0000000,31NAA 66021 00000,--.--,--.--,0.0,0,0,--.--,--.--,,--.--,--.--,--.--,0,0,--.--,--.--,0,--.--,--.--,--.--,--.--,--.--,--.--,--.--,--.--,--.--,--.--,--.--,--.--,--.--,--.--,--.--,--.--,--.--,--.--,24.26,--.--,--.--,0,0,0.0,0.0,0.0,0,0,0,--.--,--.--,--.--
2025-02-26 12:03:22.707,-4.4,-3.7,246,0.0,0.0,0.0,0.0,0.0,0.000,-0.0,0.0,0.0,--.--,0.000,-326.887,0.000,0.000,0.0,00:00:03,0.0,0.0,0,--.--,0,0,0.0,0,28,0000:08:29,50.000,0.000,50.000,50.000,50.000,0.000,0.000,0.00,0,0,0,0.47,-159.63,-2852,--.--,--.--,--.--,--:--:--,1,-75.66,12:03:22,11:03:22,2/26/2025,--.--,--.--,--.--,--.--,--.--,--.--,--.--,--.--,--.--,--.--,--.--,--.--,0,--.--,--.--,--.--,--.--,--.--,--.--,--.--,--.--,--.--,--.--,--.--,--.--,--.--,--.--,--.--,--.--,0,0.000,0.000,0.000,0.000,0.000,0.000,0.000,0.000,0.000,0.000,0.000,0.000,false,false,false,false,false,false,false,false,false,false,false,false,--.--,--.--,--.--,--.--,--.--,--.--,--.--,--.--,0,0,--.--,--.--,--.--,--.--,--.--,0,0,0,0,0.0000000,0.0000000,31NAA 66021 00000,--.--,--.--,0.0,0,0,--.--,--.--,,--.--,--.--,--.--,0,0,--.--,--.--,0,--.--,--.--,--.--,--.--,--.--,--.--,--.--,--.--,--.--,--.--,--.--,--.--,--.--,--.--,--.--,--.--,--.--,--.--,24.30,--.--,--.--,0,0,0.0,0.0,0.0,0,0,0,--.--,--.--,--.--
2025-02-26 12:03:23.701,-4.4,-3.7,246,0.0,0.0,0.0,0.0,0.0,0.000,-0.0,0.0,0.0,--.--,0.000,-326.862,0.000,0.000,0.0,00:00:04,0.0,0.0,0,--.--,0,0,0.0,0,28,0000:08:29,50.000,0.000,50.000,50.000,50.000,0.000,0.000,0.00,0,0,0,0.47,-159.65,-2896,--.--,--.--,--.--,--:--:--,1,-75.67,12:03:23,11:03:23,2/26/2025,--.--,--.--,--.--,--.--,--.--,--.--,--.--,--.--,--.--,--.--,--.--,--.--,0,--.--,--.--,--.--,--.--,--.--,--.--,--.--,--.--,--.--,--.--,--.--,--.--,--.--,--.--,--.--,--.--,0,0.000,0.000,0.000,0.000,0.000,0.000,0.000,0.000,0.000,0.000,0.000,0.000,false,false,false,false,false,false,false,false,false,false,false,false,--.--,--.--,--.--,--.--,--.--,--.--,--.--,--.--,0,0,--.--,--.--,--.--,--.--,--.--,0,0,0,0,0.0000000,0.0000000,31NAA 66021 00000,--.--,--.--,0.0,0,0,--.--,--.--,,--.--,--.--,--.--,0,0,--.--,--.--,0,--.--,--.--,--.--,--.--,--.--,--.--,--.--,--.--,--.--,--.--,--.--,--.--,--.--,--.--,--.--,--.--,--.--,--.--,24.33,--.--,--.--,0,0,0.0,0.0,0.0,0,0,0,--.--,--.--,--.--
2025-02-26 12:03:24.702,-4.4,-3.7,246,0.0,0.0,0.0,0.0,0.0,0.000,-0.0,0.0,0.0,--.--,0.000,-326.858,0.000,0.000,0.0,00:00:05,0.0,0.0,0,--.--,0,0,--.--,0,29,0000:08:29,50.000,0.000,50.000,50.000,50.000,0.000,0.000,0.00,0,0,0,0.47,-159.63,-2940,--.--,--.--,--.--,--:--:--,1,-75.50,12:03:24,11:03:24,2/26/2025,--.--,--.--,--.--,--.--,--.--,--.--,--.--,--.--,--.--,--.--,--.--,--.--,0,--.--,--.--,--.--,--.--,--.--,--.--,--.--,--.--,--.--,--.--,--.--,--.--,--.--,--.--,--.--,--.--,0,0.000,0.000,0.000,0.000,0.000,0.000,0.000,0.000,0.000,0.000,0.000,0.000,false,false,false,false,false,false,false,false,false,false,false,false,--.--,--.--,--.--,--.--,--.--,--.--,--.--,--.--,0,0,--.--,--.--,--.--,--.--,--.--,0,0,0,0,0.0000000,0.0000000,31NAA 66021 00000,--.--,--.--,0.0,0,0,--.--,--.--,,--.--,--.--,--.--,0,0,--.--,--.--,0,--.--,--.--,--.--,--.--,--.--,--.--,--.--,--.--,--.--,--.--,--.--,--.--,--.--,--.--,--.--,--.--,--.--,--.--,24.35,--.--,--.--,0,0,0.0,0.0,0.0,0,0,0,--.--,--.--,--.--
2025-02-26 12:03:25.705,-4.4,-3.7,246,0.0,0.0,0.0,0.0,0.0,0.000,-0.0,0.0,0.0,--.--,0.000,-326.871,0.000,0.000,0.0,00:00:06,0.0,0.0,0,--.--,0,0,--.--,0,29,0000:08:29,50.000,0.000,50.000,50.000,50.000,0.000,0.000,0.00,0,0,0,0.47,-159.63,-2985,--.--,--.--,--.--,--:--:--,1,-75.50,12:03:25,11:03:25,2/26/2025,--.--,--.--,--.--,--.--,--.--,--.--,--.--,--.--,--.--,--.--,--.--,--.--,0,--.--,--.--,--.--,--.--,--.--,--.--,--.--,--.--,--.--,--.--,--.--,--.--,--.--,--.--,--.--,--.--,0,0.000,0.000,0.000,0.000,0.000,0.000,0.000,0.000,0.000,0.000,0.000,0.000,false,false,false,false,false,false,false,false,false,false,false,false,--.--,--.--,--.--,--.--,--.--,--.--,--.--,--.--,0,0,--.--,--.--,--.--,--.--,--.--,0,0,0,0,0.0000000,0.0000000,31NAA 66021 00000,--.--,--.--,0.0,0,0,--.--,--.--,,--.--,--.--,--.--,0,0,--.--,--.--,0,--.--,--.--,--.--,--.--,--.--,--.--,--.--,--.--,--.--,--.--,--.--,--.--,--.--,--.--,--.--,--.--,--.--,--.--,24.38,--.--,--.--,0,0,0.0,0.0,0.0,0,0,0,--.--,--.--,--.--
2025-02-26 12:03:26.702,-4.3,-3.7,246,0.0,0.0,0.0,0.0,0.0,0.000,-0.0,0.0,0.0,--.--,0.000,-326.888,0.000,0.000,0.0,00:00:06,0.0,0.0,0,--.--,0,0,--.--,0,29,0000:08:29,50.000,0.000,50.000,50.000,50.000,0.000,0.000,0.00,0,0,0,0.47,-159.63,-3029,--.--,--.--,--.--,--:--:--,1,-75.50,12:03:26,11:03:26,2/26/2025,--.--,--.--,--.--,--.--,--.--,--.--,--.--,--.--,--.--,--.--,--.--,--.--,0,--.--,--.--,--.--,--.--,--.--,--.--,--.--,--.--,--.--,--.--,--.--,--.--,--.--,--.--,--.--,--.--,0,0.000,0.000,0.000,0.000,0.000,0.000,0.000,0.000,0.000,0.000,0.000,0.000,false,false,false,false,false,false,false,false,false,false,false,false,--.--,--.--,--.--,--.--,--.--,--.--,--.--,--.--,0,0,--.--,--.--,--.--,--.--,--.--,0,0,0,0,0.0000000,0.0000000,31NAA 66021 00000,--.--,--.--,0.0,0,0,--.--,--.--,,--.--,--.--,--.--,0,0,--.--,--.--,0,--.--,--.--,--.--,--.--,--.--,--.--,--.--,--.--,--.--,--.--,--.--,--.--,--.--,--.--,--.--,--.--,--.--,--.--,24.40,--.--,--.--,0,0,0.0,0.0,0.0,0,0,0,--.--,--.--,--.--
2025-02-26 12:03:27.705,-4.3,-3.7,246,0.0,0.0,0.0,0.0,0.0,0.000,-0.0,0.0,0.0,--.--,0.000,-326.902,0.000,0.000,0.0,00:00:08,0.0,0.0,0,--.--,0,0,--.--,0,29,0000:08:29,50.000,0.000,50.000,50.000,50.000,0.000,0.000,0.00,0,0,0,0.47,-159.63,-3073,--.--,--.--,--.--,--:--:--,1,-75.66,12:03:27,11:03:27,2/26/2025,--.--,--.--,--.--,--.--,--.--,--.--,--.--,--.--,--.--,--.--,--.--,--.--,0,--.--,--.--,--.--,--.--,--.--,--.--,--.--,--.--,--.--,--.--,--.--,--.--,--.--,--.--,--.--,--.--,0,0.000,0.000,0.000,0.000,0.000,0.000,0.000,0.000,0.000,0.000,0.000,0.000,false,false,false,false,false,false,false,false,false,false,false,false,--.--,--.--,--.--,--.--,--.--,--.--,--.--,--.--,0,0,--.--,--.--,--.--,--.--,--.--,0,0,0,0,0.0000000,0.0000000,31NAA 66021 00000,--.--,--.--,0.0,0,0,--.--,--.--,,--.--,--.--,--.--,0,0,--.--,--.--,0,--.--,--.--,--.--,--.--,--.--,--.--,--.--,--.--,--.--,--.--,--.--,--.--,--.--,--.--,--.--,--.--,--.--,--.--,24.43,--.--,--.--,0,0,0.0,0.0,0.0,0,0,0,--.--,--.--,--.--
2025-02-26 12:03:28.702,-4.3,-3.7,246,0.0,0.0,0.0,0.0,0.0,0.000,-0.0,0.0,0.0,--.--,0.000,-326.914,0.000,0.000,0.0,00:00:08,0.0,0.0,0,--.--,0,0,--.--,0,29,0000:08:29,50.000,0.000,50.000,50.000,50.000,0.000,0.000,0.00,0,0,0,0.47,-159.63,-3118,--.--,--.--,--.--,--:--:--,1,-75.50,12:03:28,11:03:28,2/26/2025,--.--,--.--,--.--,--.--,--.--,--.--,--.--,--.--,--.--,--.--,--.--,--.--,0,--.--,--.--,--.--,--.--,--.--,--.--,--.--,--.--,--.--,--.--,--.--,--.--,--.--,--.--,--.--,--.--,0,0.000,0.000,0.000,0.000,0.000,0.000,0.000,0.000,0.000,0.000,0.000,0.000,false,false,false,false,false,false,false,false,false,false,false,false,--.--,--.--,--.--,--.--,--.--,--.--,--.--,--.--,0,0,--.--,--.--,--.--,--.--,--.--,0,0,0,0,0.0000000,0.0000000,31NAA 66021 00000,--.--,--.--,0.0,0,0,--.--,--.--,,--.--,--.--,--.--,0,0,--.--,--.--,0,--.--,--.--,--.--,--.--,--.--,--.--,--.--,--.--,--.--,--.--,--.--,--.--,--.--,--.--,--.--,--.--,--.--,--.--,24.47,--.--,--.--,0,0,0.0,0.0,0.0,0,0,0,--.--,--.--,--.--
2025-02-26 12:03:29.705,-4.3,-3.7,246,0.0,0.0,0.0,0.0,0.0,0.000,-0.0,0.0,0.0,--.--,0.000,-326.918,0.000,0.000,0.0,00:00:09,0.0,0.0,0,--.--,0,0,--.--,0,29,0000:08:29,50.000,0.000,50.000,50.000,50.000,0.000,0.000,0.00,0,0,0,0.47,-159.63,-3162,--.--,--.--,--.--,--:--:--,1,-75.50,12:03:29,11:03:29,2/26/2025,--.--,--.--,--.--,--.--,--.--,--.--,--.--,--.--,--.--,--.--,--.--,--.--,0,--.--,--.--,--.--,--.--,--.--,--.--,--.--,--.--,--.--,--.--,--.--,--.--,--.--,--.--,--.--,--.--,0,0.000,0.000,0.000,0.000,0.000,0.000,0.000,0.000,0.000,0.000,0.000,0.000,false,false,false,false,false,false,false,false,false,false,false,false,--.--,--.--,--.--,--.--,--.--,--.--,--.--,--.--,0,0,--.--,--.--,--.--,--.--,--.--,0,0,0,0,0.0000000,0.0000000,31NAA 66021 00000,--.--,--.--,0.0,0,0,--.--,--.--,,--.--,--.--,--.--,0,0,--.--,--.--,0,--.--,--.--,--.--,--.--,--.--,--.--,--.--,--.--,--.--,--.--,--.--,--.--,--.--,--.--,--.--,--.--,--.--,--.--,24.49,--.--,--.--,0,0,0.0,0.0,0.1,0,0,0,--.--,--.--,--.--
2025-02-26 12:03:30.707,-4.3,-3.7,246,0.0,0.0,0.0,0.1,0.0,0.000,-0.0,0.0,0.0,--.--,0.000,-326.920,0.000,0.000,0.0,00:00:10,0.0,0.0,0,--.--,0,0,--.--,0,29,0000:08:29,50.000,0.000,50.000,50.000,50.000,0.000,0.000,0.00,0,0,0,0.47,-159.63,-3207,--.--,--.--,--.--,--:--:--,1,-75.50,12:03:30,11:03:30,2/26/2025,--.--,--.--,--.--,--.--,--.--,--.--,--.--,--.--,--.--,--.--,--.--,--.--,0,--.--,--.--,--.--,--.--,--.--,--.--,--.--,--.--,--.--,--.--,--.--,--.--,--.--,--.--,--.--,--.--,0,0.000,0.000,0.000,0.000,0.000,0.000,0.000,0.000,0.000,0.000,0.000,0.000,false,false,false,false,false,false,false,false,false,false,false,false,--.--,--.--,--.--,--.--,--.--,--.--,--.--,--.--,0,0,--.--,--.--,--.--,--.--,--.--,0,0,0,0,0.0000000,0.0000000,31NAA 66021 00000,--.--,--.--,0.0,0,0,--.--,--.--,,--.--,--.--,--.--,0,0,--.--,--.--,0,--.--,--.--,--.--,--.--,--.--,--.--,--.--,--.--,--.--,--.--,--.--,--.--,--.--,--.--,--.--,--.--,--.--,--.--,24.51,--.--,--.--,0,0,0.0,0.0,0.0,0,0,0,--.--,--.--,--.--
2025-02-26 12:03:31.702,-4.3,-3.7,246,0.0,0.0,0.0,0.1,0.0,0.000,-0.0,0.0,0.0,--.--,0.000,-326.901,0.000,0.000,0.0,00:00:11,0.0,0.0,0,--.--,0,0,--.--,0,29,0000:08:29,50.000,0.000,50.000,50.000,50.000,0.000,0.000,0.00,0,0,0,0.47,-159.63,-3251,--.--,--.--,--.--,--:--:--,1,-75.50,12:03:31,11:03:31,2/26/2025,--.--,--.--,--.--,--.--,--.--,--.--,--.--,--.--,--.--,--.--,--.--,--.--,0,--.--,--.--,--.--,--.--,--.--,--.--,--.--,--.--,--.--,--.--,--.--,--.--,--.--,--.--,--.--,--.--,0,0.000,0.000,0.000,0.000,0.000,0.000,0.000,0.000,0.000,0.000,0.000,0.000,false,false,false,false,false,false,false,false,false,false,false,false,--.--,--.--,--.--,--.--,--.--,--.--,--.--,--.--,0,0,--.--,--.--,--.--,--.--,--.--,0,0,0,0,0.0000000,0.0000000,31NAA 66021 00000,--.--,--.--,0.0,0,0,--.--,--.--,,--.--,--.--,--.--,0,0,--.--,--.--,0,--.--,--.--,--.--,--.--,--.--,--.--,--.--,--.--,--.--,--.--,--.--,--.--,--.--,--.--,--.--,--.--,--.--,--.--,24.54,--.--,--.--,0,0,0.0,0.0,0.0,0,0,0,--.--,--.--,--.--
2025-02-26 12:03:32.704,-4.3,-3.7,246,0.0,0.0,0.0,0.1,0.0,0.000,-0.0,0.0,0.0,--.--,0.000,-326.885,0.000,0.000,0.0,00:00:12,0.0,0.0,0,--.--,0,0,--.--,0,29,0000:08:29,50.000,0.000,50.000,50.000,50.000,0.000,0.000,0.00,0,0,0,0.47,-159.65,-3295,--.--,--.--,--.--,--:--:--,1,-75.51,12:03:32,11:03:32,2/26/2025,--.--,--.--,--.--,--.--,--.--,--.--,--.--,--.--,--.--,--.--,--.--,--.--,0,--.--,--.--,--.--,--.--,--.--,--.--,--.--,--.--,--.--,--.--,--.--,--.--,--.--,--.--,--.--,--.--,0,0.000,0.000,0.000,0.000,0.000,0.000,0.000,0.000,0.000,0.000,0.000,0.000,false,false,false,false,false,false,false,false,false,false,false,false,--.--,--.--,--.--,--.--,--.--,--.--,--.--,--.--,0,0,--.--,--.--,--.--,--.--,--.--,0,0,0,0,0.0000000,0.0000000,31NAA 66021 00000,--.--,--.--,0.0,0,0,--.--,--.--,,--.--,--.--,--.--,0,0,--.--,--.--,0,--.--,--.--,--.--,--.--,--.--,--.--,--.--,--.--,--.--,--.--,--.--,--.--,--.--,--.--,--.--,--.--,--.--,--.--,24.57,--.--,--.--,0,0,0.0,0.0,0.0,0,0,0,--.--,--.--,--.--
2025-02-26 12:03:33.700,-4.4,-3.6,250,0.0,0.0,0.0,0.1,0.0,0.000,-0.0,0.0,0.0,--.--,0.000,-326.882,0.000,0.000,0.0,00:00:13,0.0,0.0,0,--.--,0,0,--.--,0,29,0000:08:29,50.000,0.000,50.000,50.000,50.000,0.000,0.000,0.00,0,0,0,0.47,-159.63,-3340,--.--,--.--,--.--,--:--:--,1,-75.50,12:03:33,11:03:33,2/26/2025,--.--,--.--,--.--,--.--,--.--,--.--,--.--,--.--,--.--,--.--,--.--,--.--,0,--.--,--.--,--.--,--.--,--.--,--.--,--.--,--.--,--.--,--.--,--.--,--.--,--.--,--.--,--.--,--.--,0,0.000,0.000,0.000,0.000,0.000,0.000,0.000,0.000,0.000,0.000,0.000,0.000,false,false,false,false,false,false,false,false,false,false,false,false,--.--,--.--,--.--,--.--,--.--,--.--,--.--,--.--,0,0,--.--,--.--,--.--,--.--,--.--,0,0,0,0,0.0000000,0.0000000,31NAA 66021 00000,--.--,--.--,0.0,0,0,--.--,--.--,,--.--,--.--,--.--,0,0,--.--,--.--,0,--.--,--.--,--.--,--.--,--.--,--.--,--.--,--.--,--.--,--.--,--.--,--.--,--.--,--.--,--.--,--.--,--.--,--.--,24.60,--.--,--.--,0,0,0.1,0.2,0.1,0,0,0,--.--,--.--,--.--
2025-02-26 12:03:34.703,-4.3,-3.6,251,0.0,0.0,0.0,0.1,0.0,0.000,-0.0,0.0,0.0,--.--,0.000,-326.944,0.000,0.000,0.0,00:00:15,0.0,0.0,0,--.--,0,0,--.--,0,29,0000:08:29,50.000,0.000,50.000,50.000,50.000,0.000,0.000,0.00,0,0,0,0.47,-159.65,-3384,--.--,--.--,--.--,--:--:--,1,-75.51,12:03:34,11:03:34,2/26/2025,--.--,--.--,--.--,--.--,--.--,--.--,--.--,--.--,--.--,--.--,--.--,--.--,0,--.--,--.--,--.--,--.--,--.--,--.--,--.--,--.--,--.--,--.--,--.--,--.--,--.--,--.--,--.--,--.--,0,0.000,0.000,0.000,0.000,0.000,0.000,0.000,0.000,0.000,0.000,0.000,0.000,false,false,false,false,false,false,false,false,false,false,false,false,--.--,--.--,--.--,--.--,--.--,--.--,--.--,--.--,0,0,--.--,--.--,--.--,--.--,--.--,0,0,0,0,0.0000000,0.0000000,31NAA 66021 00000,--.--,--.--,0.0,0,0,--.--,--.--,,--.--,--.--,--.--,0,0,--.--,--.--,0,--.--,--.--,--.--,--.--,--.--,--.--,--.--,--.--,--.--,--.--,--.--,--.--,--.--,--.--,--.--,--.--,--.--,--.--,24.63,--.--,--.--,0,0,0.0,0.0,0.0,0,0,0,--.--,--.--,--.--
2025-02-26 12:03:35.717,-4.3,-3.6,251,0.0,0.0,0.0,0.1,0.0,0.000,-0.0,0.0,0.0,--.--,0.000,-327.021,0.000,0.000,0.0,00:00:16,0.0,0.0,0,--.--,0,0,--.--,0,29,0000:08:29,50.000,0.000,50.000,50.000,50.000,0.000,0.000,0.00,0,0,0,0.47,-159.63,-3428,--.--,--.--,--.--,--:--:--,1,-75.50,12:03:35,11:03:35,2/26/2025,--.--,--.--,--.--,--.--,--.--,--.--,--.--,--.--,--.--,--.--,--.--,--.--,0,--.--,--.--,--.--,--.--,--.--,--.--,--.--,--.--,--.--,--.--,--.--,--.--,--.--,--.--,--.--,--.--,0,0.000,0.000,0.000,0.000,0.000,0.000,0.000,0.000,0.000,0.000,0.000,0.000,false,false,false,false,false,false,false,false,false,false,false,false,--.--,--.--,--.--,--.--,--.--,--.--,--.--,--.--,0,0,--.--,--.--,--.--,--.--,--.--,0,0,0,0,0.0000000,0.0000000,31NAA 66021 00000,--.--,--.--,0.0,0,0,--.--,--.--,,--.--,--.--,--.--,0,0,--.--,--.--,0,--.--,--.--,--.--,--.--,--.--,--.--,--.--,--.--,--.--,--.--,--.--,--.--,--.--,--.--,--.--,--.--,--.--,--.--,24.65,--.--,--.--,0,0,0.0,0.0,0.0,0,0,0,--.--,--.--,--.--
2025-02-26 12:03:36.702,-4.3,-3.7,245,0.0,0.0,0.0,0.1,0.0,0.000,-0.1,0.0,0.0,--.--,0.000,-327.067,0.000,0.000,0.0,00:00:17,0.0,0.0,0,--.--,0,0,--.--,0,29,0000:08:29,50.000,0.000,50.000,50.000,50.000,0.000,0.000,0.00,0,0,0,0.47,-159.63,-3473,--.--,--.--,--.--,--:--:--,1,-75.50,12:03:36,11:03:36,2/26/2025,--.--,--.--,--.--,--.--,--.--,--.--,--.--,--.--,--.--,--.--,--.--,--.--,0,--.--,--.--,--.--,--.--,--.--,--.--,--.--,--.--,--.--,--.--,--.--,--.--,--.--,--.--,--.--,--.--,0,0.000,0.000,0.000,0.000,0.000,0.000,0.000,0.000,0.000,0.000,0.000,0.000,false,false,false,false,false,false,false,false,false,false,false,false,--.--,--.--,--.--,--.--,--.--,--.--,--.--,--.--,0,0,--.--,--.--,--.--,--.--,--.--,0,0,0,0,0.0000000,0.0000000,31NAA 66021 00000,--.--,--.--,0.0,0,0,--.--,--.--,,--.--,--.--,--.--,0,0,--.--,--.--,0,--.--,--.--,--.--,--.--,--.--,--.--,--.--,--.--,--.--,--.--,--.--,--.--,--.--,--.--,--.--,--.--,--.--,--.--,24.67,--.--,--.--,0,0,0.1,0.1,0.1,0,0,0,--.--,--.--,--.--
2025-02-26 12:03:37.701,-4.3,-3.7,244,0.0,0.0,0.0,0.1,0.0,0.000,-0.1,0.0,0.0,--.--,0.000,-327.103,0.000,0.000,0.0,00:00:18,0.0,0.0,0,--.--,0,0,--.--,0,29,0000:08:29,50.000,0.000,50.000,50.000,50.000,0.000,0.000,0.00,0,0,0,0.47,-159.63,-3517,--.--,--.--,--.--,--:--:--,1,-75.50,12:03:37,11:03:37,2/26/2025,--.--,--.--,--.--,--.--,--.--,--.--,--.--,--.--,--.--,--.--,--.--,--.--,0,--.--,--.--,--.--,--.--,--.--,--.--,--.--,--.--,--.--,--.--,--.--,--.--,--.--,--.--,--.--,--.--,0,0.000,0.000,0.000,0.000,0.000,0.000,0.000,0.000,0.000,0.000,0.000,0.000,false,false,false,false,false,false,false,false,false,false,false,false,--.--,--.--,--.--,--.--,--.--,--.--,--.--,--.--,0,0,--.--,--.--,--.--,--.--,--.--,0,0,0,0,0.0000000,0.0000000,31NAA 66021 00000,--.--,--.--,0.0,0,0,--.--,--.--,,--.--,--.--,--.--,0,0,--.--,--.--,0,--.--,--.--,--.--,--.--,--.--,--.--,--.--,--.--,--.--,--.--,--.--,--.--,--.--,--.--,--.--,--.--,--.--,--.--,24.71,--.--,--.--,0,0,0.1,0.2,0.1,0,0,0,--.--,--.--,--.--
2025-02-26 12:03:38.705,-4.3,-3.7,244,0.0,0.0,0.0,0.1,0.0,0.000,-0.1,0.0,0.0,--.--,0.000,-327.152,0.000,0.000,0.0,00:00:19,0.0,0.0,0,--.--,0,0,--.--,0,29,0000:08:29,50.000,0.000,50.000,50.000,50.000,0.000,0.000,0.00,0,0,0,0.47,-159.63,-3561,--.--,--.--,--.--,--:--:--,1,-75.50,12:03:38,11:03:38,2/26/2025,--.--,--.--,--.--,--.--,--.--,--.--,--.--,--.--,--.--,--.--,--.--,--.--,0,--.--,--.--,--.--,--.--,--.--,--.--,--.--,--.--,--.--,--.--,--.--,--.--,--.--,--.--,--.--,--.--,0,0.000,0.000,0.000,0.000,0.000,0.000,0.000,0.000,0.000,0.000,0.000,0.000,false,false,false,false,false,false,false,false,false,false,false,false,--.--,--.--,--.--,--.--,--.--,--.--,--.--,--.--,0,0,--.--,--.--,--.--,--.--,--.--,0,0,0,0,0.0000000,0.0000000,31NAA 66021 00000,--.--,--.--,0.0,0,0,--.--,--.--,,--.--,--.--,--.--,0,0,--.--,--.--,0,--.--,--.--,--.--,--.--,--.--,--.--,--.--,--.--,--.--,--.--,--.--,--.--,--.--,--.--,--.--,--.--,--.--,--.--,24.73,--.--,--.--,0,0,0.1,0.1,0.1,0,0,0,--.--,--.--,--.--
2025-02-26 12:03:39.700,-4.4,-3.3,244,0.0,0.0,0.0,0.1,0.0,0.000,-0.0,0.0,0.0,--.--,0.000,-327.199,0.000,0.000,0.0,00:00:20,0.0,0.0,0,--.--,0,0,--.--,0,29,0000:08:29,50.000,0.000,50.000,50.000,50.000,0.000,0.000,0.00,0,0,0,0.47,-159.65,-3606,--.--,--.--,--.--,--:--:--,1,-75.51,12:03:39,11:03:39,2/26/2025,--.--,--.--,--.--,--.--,--.--,--.--,--.--,--.--,--.--,--.--,--.--,--.--,0,--.--,--.--,--.--,--.--,--.--,--.--,--.--,--.--,--.--,--.--,--.--,--.--,--.--,--.--,--.--,--.--,0,0.000,0.000,0.000,0.000,0.000,0.000,0.000,0.000,0.000,0.000,0.000,0.000,false,false,false,false,false,false,false,false,false,false,false,false,--.--,--.--,--.--,--.--,--.--,--.--,--.--,--.--,0,0,--.--,--.--,--.--,--.--,--.--,0,0,0,0,0.0000000,0.0000000,31NAA 66021 00000,--.--,--.--,0.0,0,0,--.--,--.--,,--.--,--.--,--.--,0,0,--.--,--.--,0,--.--,--.--,--.--,--.--,--.--,--.--,--.--,--.--,--.--,--.--,--.--,--.--,--.--,--.--,--.--,--.--,--.--,--.--,24.76,--.--,--.--,0,0,0.1,0.2,0.1,0,0,0,--.--,--.--,--.--
2025-02-26 12:03:40.701,-4.4,3.1,245,0.0,0.0,0.0,0.1,0.0,0.000,-0.1,0.0,0.0,--.--,0.000,-327.230,0.000,0.000,0.0,00:00:21,0.0,0.0,0,--.--,0,0,--.--,0,29,0000:08:29,50.000,0.000,50.000,50.000,50.000,0.000,0.000,0.00,0,0,0,0.47,-159.65,-3650,--.--,--.--,--.--,--:--:--,1,-75.51,12:03:40,11:03:40,2/26/2025,--.--,--.--,--.--,--.--,--.--,--.--,--.--,--.--,--.--,--.--,--.--,--.--,0,--.--,--.--,--.--,--.--,--.--,--.--,--.--,--.--,--.--,--.--,--.--,--.--,--.--,--.--,--.--,--.--,0,0.000,0.000,0.000,0.000,0.000,0.000,0.000,0.000,0.000,0.000,0.000,0.000,false,false,false,false,false,false,false,false,false,false,false,false,--.--,--.--,--.--,--.--,--.--,--.--,--.--,--.--,0,0,--.--,--.--,--.--,--.--,--.--,0,0,0,0,0.0000000,0.0000000,31NAA 66021 00000,--.--,--.--,0.0,0,0,--.--,--.--,,--.--,--.--,--.--,0,0,--.--,--.--,0,--.--,--.--,--.--,--.--,--.--,--.--,--.--,--.--,--.--,--.--,--.--,--.--,--.--,--.--,--.--,--.--,--.--,--.--,24.79,--.--,--.--,0,0,0.1,0.1,0.1,0,0,0,--.--,--.--,--.--
2025-02-26 12:03:41.706,-4.4,-0.1,244,0.0,0.0,0.0,0.1,0.0,0.000,-0.1,0.0,0.0,--.--,0.000,-327.292,0.000,0.000,0.0,00:00:22,0.0,0.0,0,--.--,0,0,--.--,0,29,0000:08:29,50.000,0.000,50.000,50.000,50.000,0.000,0.000,0.00,0,0,0,0.47,-159.63,-3694,--.--,--.--,--.--,--:--:--,1,-75.50,12:03:41,11:03:41,2/26/2025,--.--,--.--,--.--,--.--,--.--,--.--,--.--,--.--,--.--,--.--,--.--,--.--,0,--.--,--.--,--.--,--.--,--.--,--.--,--.--,--.--,--.--,--.--,--.--,--.--,--.--,--.--,--.--,--.--,0,0.000,0.000,0.000,0.000,0.000,0.000,0.000,0.000,0.000,0.000,0.000,0.000,false,false,false,false,false,false,false,false,false,false,false,false,--.--,--.--,--.--,--.--,--.--,--.--,--.--,--.--,0,0,--.--,--.--,--.--,--.--,--.--,0,0,0,0,0.0000000,0.0000000,31NAA 66021 00000,--.--,--.--,0.0,0,0,--.--,--.--,,--.--,--.--,--.--,0,0,--.--,--.--,0,--.--,--.--,--.--,--.--,--.--,--.--,--.--,--.--,--.--,--.--,--.--,--.--,--.--,--.--,--.--,--.--,--.--,--.--,24.81,--.--,--.--,0,0,0.0,0.0,0.1,0,0,0,--.--,--.--,--.--
2025-02-26 12:03:42.703,-4.4,-3.7,244,0.0,0.0,0.0,0.1,0.0,0.000,-0.1,0.0,0.0,--.--,0.000,-327.387,0.000,0.000,0.0,00:00:23,0.0,0.0,0,--.--,0,0,--.--,0,29,0000:08:29,50.000,0.000,50.000,50.000,50.000,0.000,0.000,0.00,0,0,0,0.47,-159.63,-3739,--.--,--.--,--.--,--:--:--,1,-75.50,12:03:42,11:03:42,2/26/2025,--.--,--.--,--.--,--.--,--.--,--.--,--.--,--.--,--.--,--.--,--.--,--.--,0,--.--,--.--,--.--,--.--,--.--,--.--,--.--,--.--,--.--,--.--,--.--,--.--,--.--,--.--,--.--,--.--,0,0.000,0.000,0.000,0.000,0.000,0.000,0.000,0.000,0.000,0.000,0.000,0.000,false,false,false,false,false,false,false,false,false,false,false,false,--.--,--.--,--.--,--.--,--.--,--.--,--.--,--.--,0,0,--.--,--.--,--.--,--.--,--.--,0,0,0,0,0.0000000,0.0000000,31NAA 66021 00000,--.--,--.--,0.0,0,0,--.--,--.--,,--.--,--.--,--.--,0,0,--.--,--.--,0,--.--,--.--,--.--,--.--,--.--,--.--,--.--,--.--,--.--,--.--,--.--,--.--,--.--,--.--,--.--,--.--,--.--,--.--,24.84,--.--,--.--,0,0,0.2,0.4,0.6,0,0,0,--.--,--.--,--.--
2025-02-26 12:03:43.707,-4.4,-3.7,244,0.0,0.0,0.0,0.1,0.0,0.000,-0.1,0.0,0.0,--.--,0.000,-327.423,0.000,0.000,0.0,00:00:24,0.0,0.0,0,--.--,0,0,--.--,0,29,0000:08:29,50.000,0.000,50.000,50.000,50.000,0.000,0.000,0.00,0,0,0,0.47,-159.63,-3783,--.--,--.--,--.--,--:--:--,1,-75.50,12:03:43,11:03:43,2/26/2025,--.--,--.--,--.--,--.--,--.--,--.--,--.--,--.--,--.--,--.--,--.--,--.--,0,--.--,--.--,--.--,--.--,--.--,--.--,--.--,--.--,--.--,--.--,--.--,--.--,--.--,--.--,--.--,--.--,0,0.000,0.000,0.000,0.000,0.000,0.000,0.000,0.000,0.000,0.000,0.000,0.000,false,false,false,false,false,false,false,false,false,false,false,false,--.--,--.--,--.--,--.--,--.--,--.--,--.--,--.--,0,0,--.--,--.--,--.--,--.--,--.--,0,0,0,0,0.0000000,0.0000000,31NAA 66021 00000,--.--,--.--,0.0,0,0,--.--,--.--,,--.--,--.--,--.--,0,0,--.--,--.--,0,--.--,--.--,--.--,--.--,--.--,--.--,--.--,--.--,--.--,--.--,--.--,--.--,--.--,--.--,--.--,--.--,--.--,--.--,24.85,--.--,--.--,0,0,0.0,0.0,0.0,0,0,0,--.--,--.--,--.--
2025-02-26 12:03:44.712,-4.4,-3.7,244,0.0,0.0,0.0,0.1,0.0,0.000,-0.1,0.0,0.0,--.--,0.000,-327.469,0.000,0.000,0.0,00:00:25,0.0,0.0,0,--.--,0,0,--.--,0,29,0000:08:29,50.000,0.000,50.000,50.000,50.000,0.000,0.000,0.00,0,0,0,0.47,-159.65,-3827,--.--,--.--,--.--,--:--:--,1,-75.51,12:03:44,11:03:44,2/26/2025,--.--,--.--,--.--,--.--,--.--,--.--,--.--,--.--,--.--,--.--,--.--,--.--,0,--.--,--.--,--.--,--.--,--.--,--.--,--.--,--.--,--.--,--.--,--.--,--.--,--.--,--.--,--.--,--.--,0,0.000,0.000,0.000,0.000,0.000,0.000,0.000,0.000,0.000,0.000,0.000,0.000,false,false,false,false,false,false,false,false,false,false,false,false,--.--,--.--,--.--,--.--,--.--,--.--,--.--,--.--,0,0,--.--,--.--,--.--,--.--,--.--,0,0,0,0,0.0000000,0.0000000,31NAA 66021 00000,--.--,--.--,0.0,0,0,--.--,--.--,,--.--,--.--,--.--,0,0,--.--,--.--,0,--.--,--.--,--.--,--.--,--.--,--.--,--.--,--.--,--.--,--.--,--.--,--.--,--.--,--.--,--.--,--.--,--.--,--.--,24.89,--.--,--.--,0,0,0.0,0.0,0.0,0,0,0,--.--,--.--,--.--
2025-02-26 12:03:45.714,-4.4,-3.7,244,0.0,0.0,0.0,0.1,0.0,0.000,-0.1,0.0,0.0,--.--,0.000,-327.483,0.000,0.000,0.0,00:00:26,0.0,0.0,0,--.--,0,0,--.--,0,29,0000:08:29,50.000,0.000,50.000,50.000,50.000,0.000,0.000,0.00,0,0,0,0.47,-159.65,-3872,--.--,--.--,--.--,--:--:--,1,-75.51,12:03:45,11:03:45,2/26/2025,--.--,--.--,--.--,--.--,--.--,--.--,--.--,--.--,--.--,--.--,--.--,--.--,0,--.--,--.--,--.--,--.--,--.--,--.--,--.--,--.--,--.--,--.--,--.--,--.--,--.--,--.--,--.--,--.--,0,0.000,0.000,0.000,0.000,0.000,0.000,0.000,0.000,0.000,0.000,0.000,0.000,false,false,false,false,false,false,false,false,false,false,false,false,--.--,--.--,--.--,--.--,--.--,--.--,--.--,--.--,0,0,--.--,--.--,--.--,--.--,--.--,0,0,0,0,0.0000000,0.0000000,31NAA 66021 00000,--.--,--.--,0.0,0,0,--.--,--.--,,--.--,--.--,--.--,0,0,--.--,--.--,0,--.--,--.--,--.--,--.--,--.--,--.--,--.--,--.--,--.--,--.--,--.--,--.--,--.--,--.--,--.--,--.--,--.--,--.--,24.91,--.--,--.--,0,0,0.1,0.1,0.1,0,0,0,--.--,--.--,--.--
2025-02-26 12:03:46.700,-4.4,-3.7,244,0.0,0.0,0.0,0.1,0.0,0.000,-0.1,0.0,0.0,--.--,0.000,-327.473,0.000,0.000,0.0,00:00:27,0.0,0.0,0,--.--,0,0,--.--,0,29,0000:08:29,50.000,0.000,50.000,50.000,50.000,0.000,0.000,0.00,0,0,0,0.47,-159.65,-3916,--.--,--.--,--.--,--:--:--,1,-75.20,12:03:46,11:03:46,2/26/2025,--.--,--.--,--.--,--.--,--.--,--.--,--.--,--.--,--.--,--.--,--.--,--.--,0,--.--,--.--,--.--,--.--,--.--,--.--,--.--,--.--,--.--,--.--,--.--,--.--,--.--,--.--,--.--,--.--,0,0.000,0.000,0.000,0.000,0.000,0.000,0.000,0.000,0.000,0.000,0.000,0.000,false,false,false,false,false,false,false,false,false,false,false,false,--.--,--.--,--.--,--.--,--.--,--.--,--.--,--.--,0,0,--.--,--.--,--.--,--.--,--.--,0,0,0,0,0.0000000,0.0000000,31NAA 66021 00000,--.--,--.--,0.0,0,0,--.--,--.--,,--.--,--.--,--.--,0,0,--.--,--.--,0,--.--,--.--,--.--,--.--,--.--,--.--,--.--,--.--,--.--,--.--,--.--,--.--,--.--,--.--,--.--,--.--,--.--,--.--,24.93,--.--,--.--,0,0,0.0,0.0,0.1,0,0,0,--.--,--.--,--.--
2025-02-26 12:03:47.702,-4.4,-3.7,244,0.0,0.0,0.0,0.1,0.0,0.000,-0.1,0.0,0.0,--.--,0.000,-327.472,0.000,0.000,0.0,00:00:28,0.0,0.0,0,--.--,0,0,--.--,0,29,0000:08:29,50.000,0.000,50.000,50.000,50.000,0.000,0.000,0.00,0,0,0,0.47,-159.63,-3960,--.--,--.--,--.--,--:--:--,1,-75.50,12:03:47,11:03:47,2/26/2025,--.--,--.--,--.--,--.--,--.--,--.--,--.--,--.--,--.--,--.--,--.--,--.--,0,--.--,--.--,--.--,--.--,--.--,--.--,--.--,--.--,--.--,--.--,--.--,--.--,--.--,--.--,--.--,--.--,0,0.000,0.000,0.000,0.000,0.000,0.000,0.000,0.000,0.000,0.000,0.000,0.000,false,false,false,false,false,false,false,false,false,false,false,false,--.--,--.--,--.--,--.--,--.--,--.--,--.--,--.--,0,0,--.--,--.--,--.--,--.--,--.--,0,0,0,0,0.0000000,0.0000000,31NAA 66021 00000,--.--,--.--,0.0,0,0,--.--,--.--,,--.--,--.--,--.--,0,0,--.--,--.--,0,--.--,--.--,--.--,--.--,--.--,--.--,--.--,--.--,--.--,--.--,--.--,--.--,--.--,--.--,--.--,--.--,--.--,--.--,24.96,--.--,--.--,0,0,0.0,0.0,0.1,0,0,0,--.--,--.--,--.--
2025-02-26 12:03:48.704,-4.5,-3.7,245,0.0,0.0,0.0,0.1,0.0,0.000,-0.1,0.0,0.0,--.--,0.000,-327.470,0.000,0.000,0.0,00:00:29,0.0,0.0,0,--.--,0,0,--.--,0,29,0000:08:29,50.000,0.000,50.000,50.000,50.000,0.000,0.000,0.00,0,0,0,0.47,-159.65,-4005,--.--,--.--,--.--,--:--:--,1,-75.51,12:03:48,11:03:48,2/26/2025,--.--,--.--,--.--,--.--,--.--,--.--,--.--,--.--,--.--,--.--,--.--,--.--,0,--.--,--.--,--.--,--.--,--.--,--.--,--.--,--.--,--.--,--.--,--.--,--.--,--.--,--.--,--.--,--.--,0,0.000,0.000,0.000,0.000,0.000,0.000,0.000,0.000,0.000,0.000,0.000,0.000,false,false,false,false,false,false,false,false,false,false,false,false,--.--,--.--,--.--,--.--,--.--,--.--,--.--,--.--,0,0,--.--,--.--,--.--,--.--,--.--,0,0,0,0,0.0000000,0.0000000,31NAA 66021 00000,--.--,--.--,0.0,0,0,--.--,--.--,,--.--,--.--,--.--,0,0,--.--,--.--,0,--.--,--.--,--.--,--.--,--.--,--.--,--.--,--.--,--.--,--.--,--.--,--.--,--.--,--.--,--.--,--.--,--.--,--.--,24.98,--.--,--.--,0,0,0.0,0.0,0.0,0,0,0,--.--,--.--,--.--
2025-02-26 12:03:49.705,-4.5,-3.7,247,0.0,0.0,0.0,0.1,0.0,0.000,-0.1,0.0,0.0,--.--,0.000,-327.477,0.000,0.000,0.0,00:00:30,0.0,0.0,0,--.--,0,0,--.--,0,29,0000:08:29,50.000,0.000,50.000,50.000,50.000,0.000,0.000,0.00,0,0,0,0.47,-159.65,-4049,--.--,--.--,--.--,--:--:--,1,-75.51,12:03:49,11:03:49,2/26/2025,--.--,--.--,--.--,--.--,--.--,--.--,--.--,--.--,--.--,--.--,--.--,--.--,0,--.--,--.--,--.--,--.--,--.--,--.--,--.--,--.--,--.--,--.--,--.--,--.--,--.--,--.--,--.--,--.--,0,0.000,0.000,0.000,0.000,0.000,0.000,0.000,0.000,0.000,0.000,0.000,0.000,false,false,false,false,false,false,false,false,false,false,false,false,--.--,--.--,--.--,--.--,--.--,--.--,--.--,--.--,0,0,--.--,--.--,--.--,--.--,--.--,0,0,0,0,0.0000000,0.0000000,31NAA 66021 00000,--.--,--.--,0.0,0,0,--.--,--.--,,--.--,--.--,--.--,0,0,--.--,--.--,0,--.--,--.--,--.--,--.--,--.--,--.--,--.--,--.--,--.--,--.--,--.--,--.--,--.--,--.--,--.--,--.--,--.--,--.--,25.01,--.--,--.--,0,0,0.0,0.0,0.0,0,0,0,--.--,--.--,--.--
2025-02-26 12:03:50.709,-4.5,-3.7,247,0.0,0.0,0.0,0.1,0.0,0.000,-0.1,0.0,0.0,--.--,0.000,-327.482,0.000,0.000,0.0,00:00:31,0.0,0.0,0,--.--,0,0,--.--,0,29,0000:08:29,50.000,0.000,50.000,50.000,50.000,0.000,0.000,0.00,0,0,0,0.47,-159.65,-4094,--.--,--.--,--.--,--:--:--,1,-75.51,12:03:50,11:03:50,2/26/2025,--.--,--.--,--.--,--.--,--.--,--.--,--.--,--.--,--.--,--.--,--.--,--.--,0,--.--,--.--,--.--,--.--,--.--,--.--,--.--,--.--,--.--,--.--,--.--,--.--,--.--,--.--,--.--,--.--,0,0.000,0.000,0.000,0.000,0.000,0.000,0.000,0.000,0.000,0.000,0.000,0.000,false,false,false,false,false,false,false,false,false,false,false,false,--.--,--.--,--.--,--.--,--.--,--.--,--.--,--.--,0,0,--.--,--.--,--.--,--.--,--.--,0,0,0,0,0.0000000,0.0000000,31NAA 66021 00000,--.--,--.--,0.0,0,0,--.--,--.--,,--.--,--.--,--.--,0,0,--.--,--.--,0,--.--,--.--,--.--,--.--,--.--,--.--,--.--,--.--,--.--,--.--,--.--,--.--,--.--,--.--,--.--,--.--,--.--,--.--,25.03,--.--,--.--,0,0,0.0,0.0,0.1,0,0,0,--.--,--.--,--.--
2025-02-26 12:03:51.704,-4.5,-3.7,247,0.0,0.0,0.0,0.1,0.0,0.000,-0.1,0.0,0.0,--.--,0.000,-327.500,0.000,0.000,0.0,00:00:32,0.0,0.0,0,--.--,0,0,--.--,0,29,0000:08:29,50.000,0.000,50.000,50.000,50.000,0.000,0.000,0.00,0,0,0,0.47,-159.65,-4138,--.--,--.--,--.--,--:--:--,1,-75.51,12:03:51,11:03:51,2/26/2025,--.--,--.--,--.--,--.--,--.--,--.--,--.--,--.--,--.--,--.--,--.--,--.--,0,--.--,--.--,--.--,--.--,--.--,--.--,--.--,--.--,--.--,--.--,--.--,--.--,--.--,--.--,--.--,--.--,0,0.000,0.000,0.000,0.000,0.000,0.000,0.000,0.000,0.000,0.000,0.000,0.000,false,false,false,false,false,false,false,false,false,false,false,false,--.--,--.--,--.--,--.--,--.--,--.--,--.--,--.--,0,0,--.--,--.--,--.--,--.--,--.--,0,0,0,0,0.0000000,0.0000000,31NAA 66021 00000,--.--,--.--,0.0,0,0,--.--,--.--,,--.--,--.--,--.--,0,0,--.--,--.--,0,--.--,--.--,--.--,--.--,--.--,--.--,--.--,--.--,--.--,--.--,--.--,--.--,--.--,--.--,--.--,--.--,--.--,--.--,25.06,--.--,--.--,0,0,0.0,0.0,0.0,0,0,0,--.--,--.--,--.--
2025-02-26 12:03:52.703,-4.5,-3.7,247,0.0,0.0,0.0,0.1,0.0,0.000,-0.1,0.0,0.0,--.--,0.000,-327.519,0.000,0.000,0.0,00:00:33,0.0,0.0,0,--.--,0,0,--.--,0,29,0000:08:29,50.000,0.000,50.000,50.000,50.000,0.000,0.000,0.00,0,0,0,0.47,-159.63,-4182,--.--,--.--,--.--,--:--:--,1,-75.19,12:03:52,11:03:52,2/26/2025,--.--,--.--,--.--,--.--,--.--,--.--,--.--,--.--,--.--,--.--,--.--,--.--,0,--.--,--.--,--.--,--.--,--.--,--.--,--.--,--.--,--.--,--.--,--.--,--.--,--.--,--.--,--.--,--.--,0,0.000,0.000,0.000,0.000,0.000,0.000,0.000,0.000,0.000,0.000,0.000,0.000,false,false,false,false,false,false,false,false,false,false,false,false,--.--,--.--,--.--,--.--,--.--,--.--,--.--,--.--,0,0,--.--,--.--,--.--,--.--,--.--,0,0,0,0,0.0000000,0.0000000,31NAA 66021 00000,--.--,--.--,0.0,0,0,--.--,--.--,,--.--,--.--,--.--,0,0,--.--,--.--,0,--.--,--.--,--.--,--.--,--.--,--.--,--.--,--.--,--.--,--.--,--.--,--.--,--.--,--.--,--.--,--.--,--.--,--.--,25.09,--.--,--.--,0,0,0.0,0.0,0.0,0,0,0,--.--,--.--,--.--
2025-02-26 12:03:53.703,-4.5,-3.7,247,0.0,0.0,0.0,0.0,0.0,0.000,-0.1,0.0,0.0,--.--,0.000,-327.519,0.000,0.000,0.0,00:00:34,0.0,0.0,0,--.--,0,0,--.--,0,29,0000:08:29,50.000,0.000,50.000,50.000,50.000,0.000,0.000,0.00,0,0,0,0.47,-159.65,-4227,--.--,--.--,--.--,--:--:--,1,-75.20,12:03:53,11:03:53,2/26/2025,--.--,--.--,--.--,--.--,--.--,--.--,--.--,--.--,--.--,--.--,--.--,--.--,0,--.--,--.--,--.--,--.--,--.--,--.--,--.--,--.--,--.--,--.--,--.--,--.--,--.--,--.--,--.--,--.--,0,0.000,0.000,0.000,0.000,0.000,0.000,0.000,0.000,0.000,0.000,0.000,0.000,false,false,false,false,false,false,false,false,false,false,false,false,--.--,--.--,--.--,--.--,--.--,--.--,--.--,--.--,0,0,--.--,--.--,--.--,--.--,--.--,0,0,0,0,0.0000000,0.0000000,31NAA 66021 00000,--.--,--.--,0.0,0,0,--.--,--.--,,--.--,--.--,--.--,0,0,--.--,--.--,0,--.--,--.--,--.--,--.--,--.--,--.--,--.--,--.--,--.--,--.--,--.--,--.--,--.--,--.--,--.--,--.--,--.--,--.--,25.12,--.--,--.--,0,0,0.0,0.0,0.0,0,0,0,--.--,--.--,--.--
2025-02-26 12:03:54.706,-4.6,-3.7,247,0.0,0.0,0.0,0.0,0.0,0.000,-0.0,0.0,0.0,--.--,0.000,-327.521,0.000,0.000,0.0,00:00:35,0.0,0.0,0,--.--,0,0,--.--,0,29,0000:08:29,50.000,0.000,50.000,50.000,50.000,0.000,0.000,0.00,0,0,0,0.47,-159.65,-4271,--.--,--.--,--.--,--:--:--,1,-75.20,12:03:54,11:03:54,2/26/2025,--.--,--.--,--.--,--.--,--.--,--.--,--.--,--.--,--.--,--.--,--.--,--.--,0,--.--,--.--,--.--,--.--,--.--,--.--,--.--,--.--,--.--,--.--,--.--,--.--,--.--,--.--,--.--,--.--,0,0.000,0.000,0.000,0.000,0.000,0.000,0.000,0.000,0.000,0.000,0.000,0.000,false,false,false,false,false,false,false,false,false,false,false,false,--.--,--.--,--.--,--.--,--.--,--.--,--.--,--.--,0,0,--.--,--.--,--.--,--.--,--.--,0,0,0,0,0.0000000,0.0000000,31NAA 66021 00000,--.--,--.--,0.0,0,0,--.--,--.--,,--.--,--.--,--.--,0,0,--.--,--.--,0,--.--,--.--,--.--,--.--,--.--,--.--,--.--,--.--,--.--,--.--,--.--,--.--,--.--,--.--,--.--,--.--,--.--,--.--,25.14,--.--,--.--,0,0,0.0,0.0,0.0,0,0,0,--.--,--.--,--.--
2025-02-26 12:03:55.704,-4.6,-3.7,247,0.0,0.0,0.0,0.0,0.0,0.000,-0.0,0.0,0.0,--.--,0.000,-327.516,0.000,0.000,0.0,00:00:36,0.0,0.0,0,--.--,0,0,--.--,0,29,0000:08:29,50.000,0.000,50.000,50.000,50.000,0.000,0.000,0.00,0,0,0,0.47,-159.65,-4315,--.--,--.--,--.--,--:--:--,1,-75.20,12:03:55,11:03:55,2/26/2025,--.--,--.--,--.--,--.--,--.--,--.--,--.--,--.--,--.--,--.--,--.--,--.--,0,--.--,--.--,--.--,--.--,--.--,--.--,--.--,--.--,--.--,--.--,--.--,--.--,--.--,--.--,--.--,--.--,0,0.000,0.000,0.000,0.000,0.000,0.000,0.000,0.000,0.000,0.000,0.000,0.000,false,false,false,false,false,false,false,false,false,false,false,false,--.--,--.--,--.--,--.--,--.--,--.--,--.--,--.--,0,0,--.--,--.--,--.--,--.--,--.--,0,0,0,0,0.0000000,0.0000000,31NAA 66021 00000,--.--,--.--,0.0,0,0,--.--,--.--,,--.--,--.--,--.--,0,0,--.--,--.--,0,--.--,--.--,--.--,--.--,--.--,--.--,--.--,--.--,--.--,--.--,--.--,--.--,--.--,--.--,--.--,--.--,--.--,--.--,25.17,--.--,--.--,0,0,0.0,0.0,0.0,0,0,0,--.--,--.--,--.--
2025-02-26 12:03:56.702,-4.6,-3.7,247,0.0,0.0,0.0,0.0,0.0,0.000,-0.0,0.0,0.0,--.--,0.000,-327.494,0.000,0.000,0.0,00:00:37,0.0,0.0,0,--.--,0,0,--.--,0,29,0000:08:29,50.000,0.000,50.000,50.000,50.000,0.000,0.000,0.00,0,0,0,0.47,-159.65,-4360,--.--,--.--,--.--,--:--:--,1,-75.51,12:03:56,11:03:56,2/26/2025,--.--,--.--,--.--,--.--,--.--,--.--,--.--,--.--,--.--,--.--,--.--,--.--,0,--.--,--.--,--.--,--.--,--.--,--.--,--.--,--.--,--.--,--.--,--.--,--.--,--.--,--.--,--.--,--.--,0,0.000,0.000,0.000,0.000,0.000,0.000,0.000,0.000,0.000,0.000,0.000,0.000,false,false,false,false,false,false,false,false,false,false,false,false,--.--,--.--,--.--,--.--,--.--,--.--,--.--,--.--,0,0,--.--,--.--,--.--,--.--,--.--,0,0,0,0,0.0000000,0.0000000,31NAA 66021 00000,--.--,--.--,0.0,0,0,--.--,--.--,,--.--,--.--,--.--,0,0,--.--,--.--,0,--.--,--.--,--.--,--.--,--.--,--.--,--.--,--.--,--.--,--.--,--.--,--.--,--.--,--.--,--.--,--.--,--.--,--.--,25.20,--.--,--.--,0,0,0.0,0.1,0.1,0,0,0,--.--,--.--,--.--
2025-02-26 12:03:57.706,-4.6,-3.8,247,0.0,0.0,0.0,0.0,0.0,0.000,-0.0,0.0,0.0,--.--,0.000,-327.520,0.000,0.000,0.0,00:00:38,0.0,0.0,0,--.--,0,0,--.--,0,29,0000:08:29,50.000,0.000,50.000,50.000,50.000,0.000,0.000,0.00,0,0,0,0.47,-159.65,-4404,--.--,--.--,--.--,--:--:--,1,-75.20,12:03:57,11:03:57,2/26/2025,--.--,--.--,--.--,--.--,--.--,--.--,--.--,--.--,--.--,--.--,--.--,--.--,0,--.--,--.--,--.--,--.--,--.--,--.--,--.--,--.--,--.--,--.--,--.--,--.--,--.--,--.--,--.--,--.--,0,0.000,0.000,0.000,0.000,0.000,0.000,0.000,0.000,0.000,0.000,0.000,0.000,false,false,false,false,false,false,false,false,false,false,false,false,--.--,--.--,--.--,--.--,--.--,--.--,--.--,--.--,0,0,--.--,--.--,--.--,--.--,--.--,0,0,0,0,0.0000000,0.0000000,31NAA 66021 00000,--.--,--.--,0.0,0,0,--.--,--.--,,--.--,--.--,--.--,0,0,--.--,--.--,0,--.--,--.--,--.--,--.--,--.--,--.--,--.--,--.--,--.--,--.--,--.--,--.--,--.--,--.--,--.--,--.--,--.--,--.--,25.22,--.--,--.--,0,0,0.0,0.0,0.1,0,0,0,--.--,--.--,--.--
2025-02-26 12:03:58.701,-4.6,-3.8,247,0.0,0.0,0.0,0.0,0.0,0.000,-0.0,0.0,0.0,--.--,0.000,-327.509,0.000,0.000,0.0,00:00:39,0.0,0.0,0,--.--,0,0,--.--,0,29,0000:08:29,50.000,0.000,50.000,50.000,50.000,0.000,0.000,0.00,0,0,0,0.47,-159.65,-4448,--.--,--.--,--.--,--:--:--,1,-75.51,12:03:58,11:03:58,2/26/2025,--.--,--.--,--.--,--.--,--.--,--.--,--.--,--.--,--.--,--.--,--.--,--.--,0,--.--,--.--,--.--,--.--,--.--,--.--,--.--,--.--,--.--,--.--,--.--,--.--,--.--,--.--,--.--,--.--,0,0.000,0.000,0.000,0.000,0.000,0.000,0.000,0.000,0.000,0.000,0.000,0.000,false,false,false,false,false,false,false,false,false,false,false,false,--.--,--.--,--.--,--.--,--.--,--.--,--.--,--.--,0,0,--.--,--.--,--.--,--.--,--.--,0,0,0,0,0.0000000,0.0000000,31NAA 66021 00000,--.--,--.--,0.0,0,0,--.--,--.--,,--.--,--.--,--.--,0,0,--.--,--.--,0,--.--,--.--,--.--,--.--,--.--,--.--,--.--,--.--,--.--,--.--,--.--,--.--,--.--,--.--,--.--,--.--,--.--,--.--,25.24,--.--,--.--,0,0,0.0,0.0,0.0,0,0,0,--.--,--.--,--.--
2025-02-26 12:03:59.704,-4.6,-3.8,247,0.0,0.0,0.0,0.0,0.0,0.000,-0.0,0.0,0.0,--.--,0.000,-327.462,0.000,0.000,0.0,00:00:40,0.0,0.0,0,--.--,0,0,--.--,0,29,0000:08:29,50.000,0.000,50.000,50.000,50.000,0.000,0.000,0.00,0,0,0,0.47,-159.65,-4493,--.--,--.--,--.--,--:--:--,1,-75.20,12:03:59,11:03:59,2/26/2025,--.--,--.--,--.--,--.--,--.--,--.--,--.--,--.--,--.--,--.--,--.--,--.--,0,--.--,--.--,--.--,--.--,--.--,--.--,--.--,--.--,--.--,--.--,--.--,--.--,--.--,--.--,--.--,--.--,0,0.000,0.000,0.000,0.000,0.000,0.000,0.000,0.000,0.000,0.000,0.000,0.000,false,false,false,false,false,false,false,false,false,false,false,false,--.--,--.--,--.--,--.--,--.--,--.--,--.--,--.--,0,0,--.--,--.--,--.--,--.--,--.--,0,0,0,0,0.0000000,0.0000000,31NAA 66021 00000,--.--,--.--,0.0,0,0,--.--,--.--,,--.--,--.--,--.--,0,0,--.--,--.--,0,--.--,--.--,--.--,--.--,--.--,--.--,--.--,--.--,--.--,--.--,--.--,--.--,--.--,--.--,--.--,--.--,--.--,--.--,25.26,--.--,--.--,0,0,0.0,0.0,0.0,0,0,0,--.--,--.--,--.--
2025-02-26 12:04:00.706,-4.6,-3.8,247,0.0,0.0,0.0,0.0,0.0,0.000,-0.0,0.0,0.0,--.--,0.000,-327.426,0.000,0.000,0.0,00:00:41,0.0,0.0,0,--.--,0,0,--.--,0,29,0000:08:29,50.000,0.000,50.000,50.000,50.000,0.000,0.000,0.00,0,0,0,0.47,-159.65,-4537,--.--,--.--,--.--,--:--:--,1,-75.51,12:04:00,11:04:00,2/26/2025,--.--,--.--,--.--,--.--,--.--,--.--,--.--,--.--,--.--,--.--,--.--,--.--,0,--.--,--.--,--.--,--.--,--.--,--.--,--.--,--.--,--.--,--.--,--.--,--.--,--.--,--.--,--.--,--.--,0,0.000,0.000,0.000,0.000,0.000,0.000,0.000,0.000,0.000,0.000,0.000,0.000,false,false,false,false,false,false,false,false,false,false,false,false,--.--,--.--,--.--,--.--,--.--,--.--,--.--,--.--,0,0,--.--,--.--,--.--,--.--,--.--,0,0,0,0,0.0000000,0.0000000,31NAA 66021 00000,--.--,--.--,0.0,0,0,--.--,--.--,,--.--,--.--,--.--,0,0,--.--,--.--,0,--.--,--.--,--.--,--.--,--.--,--.--,--.--,--.--,--.--,--.--,--.--,--.--,--.--,--.--,--.--,--.--,--.--,--.--,25.29,--.--,--.--,0,0,0.0,0.0,0.0,0,0,0,--.--,--.--,--.--
2025-02-26 12:04:01.705,-4.6,-3.8,247,0.0,0.0,0.0,0.0,0.0,0.000,-0.0,0.0,0.0,--.--,0.000,-327.413,0.000,0.000,0.0,00:00:42,0.0,0.0,0,--.--,0,0,--.--,0,29,0000:08:29,50.000,0.000,50.000,50.000,50.000,0.000,0.000,0.00,0,0,0,0.47,-159.66,-4581,--.--,--.--,--.--,--:--:--,1,-75.52,12:04:01,11:04:01,2/26/2025,--.--,--.--,--.--,--.--,--.--,--.--,--.--,--.--,--.--,--.--,--.--,--.--,0,--.--,--.--,--.--,--.--,--.--,--.--,--.--,--.--,--.--,--.--,--.--,--.--,--.--,--.--,--.--,--.--,0,0.000,0.000,0.000,0.000,0.000,0.000,0.000,0.000,0.000,0.000,0.000,0.000,false,false,false,false,false,false,false,false,false,false,false,false,--.--,--.--,--.--,--.--,--.--,--.--,--.--,--.--,0,0,--.--,--.--,--.--,--.--,--.--,0,0,0,0,0.0000000,0.0000000,31NAA 66021 00000,--.--,--.--,0.0,0,0,--.--,--.--,,--.--,--.--,--.--,0,0,--.--,--.--,0,--.--,--.--,--.--,--.--,--.--,--.--,--.--,--.--,--.--,--.--,--.--,--.--,--.--,--.--,--.--,--.--,--.--,--.--,25.32,--.--,--.--,0,0,0.0,0.0,0.0,0,0,0,--.--,--.--,--.--
2025-02-26 12:04:02.707,-4.6,-3.8,247,0.0,0.0,0.0,0.0,0.0,0.000,-0.0,0.0,0.0,--.--,0.000,-327.388,0.000,0.000,0.0,00:00:43,0.0,0.0,0,--.--,0,0,--.--,0,29,0000:08:29,50.000,0.000,50.000,50.000,50.000,0.000,0.000,0.00,0,0,0,0.47,-159.65,-4639,--.--,--.--,--.--,--:--:--,1,-75.20,12:04:02,11:04:02,2/26/2025,--.--,--.--,--.--,--.--,--.--,--.--,--.--,--.--,--.--,--.--,--.--,--.--,0,--.--,--.--,--.--,--.--,--.--,--.--,--.--,--.--,--.--,--.--,--.--,--.--,--.--,--.--,--.--,--.--,0,0.000,0.000,0.000,0.000,0.000,0.000,0.000,0.000,0.000,0.000,0.000,0.000,false,false,false,false,false,false,false,false,false,false,false,false,--.--,--.--,--.--,--.--,--.--,--.--,--.--,--.--,0,0,--.--,--.--,--.--,--.--,--.--,0,0,0,0,0.0000000,0.0000000,31NAA 66021 00000,--.--,--.--,0.0,0,0,--.--,--.--,,--.--,--.--,--.--,0,0,--.--,--.--,0,--.--,--.--,--.--,--.--,--.--,--.--,--.--,--.--,--.--,--.--,--.--,--.--,--.--,--.--,--.--,--.--,--.--,--.--,25.34,--.--,--.--,0,0,0.0,0.0,0.0,0,0,0,--.--,--.--,--.--
2025-02-26 12:04:03.699,-4.6,-3.8,247,0.0,0.0,0.0,0.0,0.0,0.000,-0.0,0.0,0.0,--.--,0.000,-327.368,0.000,0.000,0.0,00:00:44,0.0,0.0,0,--.--,0,0,--.--,0,29,0000:08:29,50.000,0.000,50.000,50.000,50.000,0.000,0.000,0.00,0,0,0,0.47,-159.65,-4670,--.--,--.--,--.--,--:--:--,1,-75.51,12:04:03,11:04:03,2/26/2025,--.--,--.--,--.--,--.--,--.--,--.--,--.--,--.--,--.--,--.--,--.--,--.--,0,--.--,--.--,--.--,--.--,--.--,--.--,--.--,--.--,--.--,--.--,--.--,--.--,--.--,--.--,--.--,--.--,0,0.000,0.000,0.000,0.000,0.000,0.000,0.000,0.000,0.000,0.000,0.000,0.000,false,false,false,false,false,false,false,false,false,false,false,false,--.--,--.--,--.--,--.--,--.--,--.--,--.--,--.--,0,0,--.--,--.--,--.--,--.--,--.--,0,0,0,0,0.0000000,0.0000000,31NAA 66021 00000,--.--,--.--,0.0,0,0,--.--,--.--,,--.--,--.--,--.--,0,0,--.--,--.--,0,--.--,--.--,--.--,--.--,--.--,--.--,--.--,--.--,--.--,--.--,--.--,--.--,--.--,--.--,--.--,--.--,--.--,--.--,25.35,--.--,--.--,0,0,0.0,0.0,0.0,0,0,0,--.--,--.--,--.--
2025-02-26 12:04:04.708,-4.6,-3.9,247,0.0,0.0,0.0,0.1,0.0,0.000,-0.0,0.0,0.0,--.--,0.000,-327.321,0.000,0.000,0.0,00:00:45,0.0,0.0,0,--.--,0,0,--.--,0,29,0000:08:29,50.000,0.000,50.000,50.000,50.000,0.000,0.000,0.00,0,0,0,0.47,-159.65,-4728,--.--,--.--,--.--,--:--:--,1,-75.51,12:04:04,11:04:04,2/26/2025,--.--,--.--,--.--,--.--,--.--,--.--,--.--,--.--,--.--,--.--,--.--,--.--,0,--.--,--.--,--.--,--.--,--.--,--.--,--.--,--.--,--.--,--.--,--.--,--.--,--.--,--.--,--.--,--.--,0,0.000,0.000,0.000,0.000,0.000,0.000,0.000,0.000,0.000,0.000,0.000,0.000,false,false,false,false,false,false,false,false,false,false,false,false,--.--,--.--,--.--,--.--,--.--,--.--,--.--,--.--,0,0,--.--,--.--,--.--,--.--,--.--,0,0,0,0,0.0000000,0.0000000,31NAA 66021 00000,--.--,--.--,0.0,0,0,--.--,--.--,,--.--,--.--,--.--,0,0,--.--,--.--,0,--.--,--.--,--.--,--.--,--.--,--.--,--.--,--.--,--.--,--.--,--.--,--.--,--.--,--.--,--.--,--.--,--.--,--.--,25.39,--.--,--.--,0,0,0.0,0.0,0.1,0,0,0,--.--,--.--,--.--
2025-02-26 12:04:05.794,-4.6,-3.8,247,0.0,0.0,0.0,0.1,0.0,0.000,-0.0,0.0,0.0,--.--,0.000,-327.280,0.000,0.000,0.0,00:00:46,0.0,0.0,0,--.--,0,0,--.--,0,30,0000:08:29,50.000,0.000,50.000,50.000,50.000,0.000,0.000,0.00,0,0,0,0.47,-159.65,-4759,--.--,--.--,--.--,--:--:--,1,-75.20,12:04:05,11:04:05,2/26/2025,--.--,--.--,--.--,--.--,--.--,--.--,--.--,--.--,--.--,--.--,--.--,--.--,0,--.--,--.--,--.--,--.--,--.--,--.--,--.--,--.--,--.--,--.--,--.--,--.--,--.--,--.--,--.--,--.--,0,0.000,0.000,0.000,0.000,0.000,0.000,0.000,0.000,0.000,0.000,0.000,0.000,false,false,false,false,false,false,false,false,false,false,false,false,--.--,--.--,--.--,--.--,--.--,--.--,--.--,--.--,0,0,--.--,--.--,--.--,--.--,--.--,0,0,0,0,0.0000000,0.0000000,31NAA 66021 00000,--.--,--.--,0.0,0,0,--.--,--.--,,--.--,--.--,--.--,0,0,--.--,--.--,0,--.--,--.--,--.--,--.--,--.--,--.--,--.--,--.--,--.--,--.--,--.--,--.--,--.--,--.--,--.--,--.--,--.--,--.--,25.42,--.--,--.--,0,0,0.0,0.0,0.0,0,0,0,--.--,--.--,--.--
2025-02-26 12:04:06.707,-4.6,-3.8,247,0.0,0.0,0.0,0.1,0.0,0.000,-0.0,0.0,0.0,--.--,0.000,-327.280,0.000,0.000,0.0,00:00:47,0.0,0.0,0,--.--,0,0,--.--,0,30,0000:08:29,50.000,0.000,50.000,50.000,50.000,0.000,0.000,0.00,0,0,0,0.47,-159.65,-4816,--.--,--.--,--.--,--:--:--,1,-75.20,12:04:06,11:04:06,2/26/2025,--.--,--.--,--.--,--.--,--.--,--.--,--.--,--.--,--.--,--.--,--.--,--.--,0,--.--,--.--,--.--,--.--,--.--,--.--,--.--,--.--,--.--,--.--,--.--,--.--,--.--,--.--,--.--,--.--,0,0.000,0.000,0.000,0.000,0.000,0.000,0.000,0.000,0.000,0.000,0.000,0.000,false,false,false,false,false,false,false,false,false,false,false,false,--.--,--.--,--.--,--.--,--.--,--.--,--.--,--.--,0,0,--.--,--.--,--.--,--.--,--.--,0,0,0,0,0.0000000,0.0000000,31NAA 66021 00000,--.--,--.--,0.0,0,0,--.--,--.--,,--.--,--.--,--.--,0,0,--.--,--.--,0,--.--,--.--,--.--,--.--,--.--,--.--,--.--,--.--,--.--,--.--,--.--,--.--,--.--,--.--,--.--,--.--,--.--,--.--,25.45,--.--,--.--,0,0,0.0,0.1,0.1,0,0,0,--.--,--.--,--.--
2025-02-26 12:04:07.707,-4.6,-3.8,247,0.0,0.0,0.0,0.1,0.0,0.000,-0.0,0.0,0.0,--.--,0.000,-327.267,0.000,0.000,0.0,00:00:48,0.0,0.0,0,--.--,0,0,--.--,0,30,0000:08:29,50.000,0.000,50.000,50.000,50.000,0.000,0.000,0.00,0,0,0,0.47,-159.66,-4861,--.--,--.--,--.--,--:--:--,1,-75.20,12:04:07,11:04:07,2/26/2025,--.--,--.--,--.--,--.--,--.--,--.--,--.--,--.--,--.--,--.--,--.--,--.--,0,--.--,--.--,--.--,--.--,--.--,--.--,--.--,--.--,--.--,--.--,--.--,--.--,--.--,--.--,--.--,--.--,0,0.000,0.000,0.000,0.000,0.000,0.000,0.000,0.000,0.000,0.000,0.000,0.000,false,false,false,false,false,false,false,false,false,false,false,false,--.--,--.--,--.--,--.--,--.--,--.--,--.--,--.--,0,0,--.--,--.--,--.--,--.--,--.--,0,0,0,0,0.0000000,0.0000000,31NAA 66021 00000,--.--,--.--,0.0,0,0,--.--,--.--,,--.--,--.--,--.--,0,0,--.--,--.--,0,--.--,--.--,--.--,--.--,--.--,--.--,--.--,--.--,--.--,--.--,--.--,--.--,--.--,--.--,--.--,--.--,--.--,--.--,25.48,--.--,--.--,0,0,0.0,0.0,0.1,0,0,0,--.--,--.--,--.--
2025-02-26 12:04:08.704,-4.6,-3.8,247,0.0,0.0,0.0,0.1,0.0,0.000,-0.0,0.0,0.0,--.--,0.000,-327.248,0.000,0.000,0.0,00:00:49,0.0,0.0,0,--.--,0,0,--.--,0,30,0000:08:29,50.000,0.000,50.000,50.000,50.000,0.000,0.000,0.00,0,0,0,0.47,-159.65,-4892,--.--,--.--,--.--,--:--:--,1,-75.20,12:04:08,11:04:08,2/26/2025,--.--,--.--,--.--,--.--,--.--,--.--,--.--,--.--,--.--,--.--,--.--,--.--,0,--.--,--.--,--.--,--.--,--.--,--.--,--.--,--.--,--.--,--.--,--.--,--.--,--.--,--.--,--.--,--.--,0,0.000,0.000,0.000,0.000,0.000,0.000,0.000,0.000,0.000,0.000,0.000,0.000,false,false,false,false,false,false,false,false,false,false,false,false,--.--,--.--,--.--,--.--,--.--,--.--,--.--,--.--,0,0,--.--,--.--,--.--,--.--,--.--,0,0,0,0,0.0000000,0.0000000,31NAA 66021 00000,--.--,--.--,0.0,0,0,--.--,--.--,,--.--,--.--,--.--,0,0,--.--,--.--,0,--.--,--.--,--.--,--.--,--.--,--.--,--.--,--.--,--.--,--.--,--.--,--.--,--.--,--.--,--.--,--.--,--.--,--.--,25.50,--.--,--.--,0,0,0.0,0.0,0.0,0,0,0,--.--,--.--,--.--
2025-02-26 12:04:09.703,-4.6,-3.8,247,0.0,0.0,0.0,0.1,0.0,0.000,-0.0,0.0,0.0,--.--,0.000,-327.245,0.000,0.000,0.0,00:00:50,0.0,0.0,0,--.--,0,0,--.--,0,30,0000:08:29,50.000,0.000,50.000,50.000,50.000,0.000,0.000,0.00,0,0,0,0.47,-159.65,-4932,--.--,--.--,--.--,--:--:--,1,-75.20,12:04:09,11:04:09,2/26/2025,--.--,--.--,--.--,--.--,--.--,--.--,--.--,--.--,--.--,--.--,--.--,--.--,0,--.--,--.--,--.--,--.--,--.--,--.--,--.--,--.--,--.--,--.--,--.--,--.--,--.--,--.--,--.--,--.--,0,0.000,0.000,0.000,0.000,0.000,0.000,0.000,0.000,0.000,0.000,0.000,0.000,false,false,false,false,false,false,false,false,false,false,false,false,--.--,--.--,--.--,--.--,--.--,--.--,--.--,--.--,0,0,--.--,--.--,--.--,--.--,--.--,0,0,0,0,0.0000000,0.0000000,31NAA 66021 00000,--.--,--.--,0.0,0,0,--.--,--.--,,--.--,--.--,--.--,0,0,--.--,--.--,0,--.--,--.--,--.--,--.--,--.--,--.--,--.--,--.--,--.--,--.--,--.--,--.--,--.--,--.--,--.--,--.--,--.--,--.--,25.53,--.--,--.--,0,0,0.0,0.0,0.0,0,0,0,--.--,--.--,--.--
2025-02-26 12:04:10.702,-4.6,-3.8,247,0.0,0.0,0.0,0.1,0.0,0.000,-0.0,0.0,0.0,--.--,0.000,-327.268,0.000,0.000,0.0,00:00:51,0.0,0.0,0,--.--,0,0,--.--,0,30,0000:08:29,50.000,0.000,50.000,50.000,50.000,0.000,0.000,0.00,0,0,0,0.47,-159.65,-4976,--.--,--.--,--.--,--:--:--,1,-75.20,12:04:10,11:04:10,2/26/2025,--.--,--.--,--.--,--.--,--.--,--.--,--.--,--.--,--.--,--.--,--.--,--.--,0,--.--,--.--,--.--,--.--,--.--,--.--,--.--,--.--,--.--,--.--,--.--,--.--,--.--,--.--,--.--,--.--,0,0.000,0.000,0.000,0.000,0.000,0.000,0.000,0.000,0.000,0.000,0.000,0.000,false,false,false,false,false,false,false,false,false,false,false,false,--.--,--.--,--.--,--.--,--.--,--.--,--.--,--.--,0,0,--.--,--.--,--.--,--.--,--.--,0,0,0,0,0.0000000,0.0000000,31NAA 66021 00000,--.--,--.--,0.0,0,0,--.--,--.--,,--.--,--.--,--.--,0,0,--.--,--.--,0,--.--,--.--,--.--,--.--,--.--,--.--,--.--,--.--,--.--,--.--,--.--,--.--,--.--,--.--,--.--,--.--,--.--,--.--,25.55,--.--,--.--,0,0,0.0,0.0,0.0,0,0,0,--.--,--.--,--.--
2025-02-26 12:04:11.708,-4.6,-3.8,247,0.0,0.0,0.0,0.1,0.0,0.000,-0.0,0.0,0.0,--.--,0.000,-327.274,0.000,0.000,0.0,00:00:52,0.0,0.0,0,--.--,0,0,--.--,0,30,0000:08:29,50.000,0.000,50.000,50.000,50.000,0.000,0.000,0.00,0,0,0,0.47,-159.65,-5038,--.--,--.--,--.--,--:--:--,1,-75.20,12:04:11,11:04:11,2/26/2025,--.--,--.--,--.--,--.--,--.--,--.--,--.--,--.--,--.--,--.--,--.--,--.--,0,--.--,--.--,--.--,--.--,--.--,--.--,--.--,--.--,--.--,--.--,--.--,--.--,--.--,--.--,--.--,--.--,0,0.000,0.000,0.000,0.000,0.000,0.000,0.000,0.000,0.000,0.000,0.000,0.000,false,false,false,false,false,false,false,false,false,false,false,false,--.--,--.--,--.--,--.--,--.--,--.--,--.--,--.--,0,0,--.--,--.--,--.--,--.--,--.--,0,0,0,0,0.0000000,0.0000000,31NAA 66021 00000,--.--,--.--,0.0,0,0,--.--,--.--,,--.--,--.--,--.--,0,0,--.--,--.--,0,--.--,--.--,--.--,--.--,--.--,--.--,--.--,--.--,--.--,--.--,--.--,--.--,--.--,--.--,--.--,--.--,--.--,--.--,25.58,--.--,--.--,0,0,0.0,0.0,0.1,0,0,0,--.--,--.--,--.--
2025-02-26 12:04:12.703,-4.6,-3.8,247,0.0,0.0,0.0,0.0,0.0,0.000,-0.0,0.0,0.0,--.--,0.000,-327.304,0.000,0.000,0.0,00:00:53,0.0,0.0,0,--.--,0,0,--.--,0,30,0000:08:29,50.000,0.000,50.000,50.000,50.000,0.000,0.000,0.00,0,0,0,0.47,-159.65,-5083,--.--,--.--,--.--,--:--:--,1,-75.20,12:04:12,11:04:12,2/26/2025,--.--,--.--,--.--,--.--,--.--,--.--,--.--,--.--,--.--,--.--,--.--,--.--,0,--.--,--.--,--.--,--.--,--.--,--.--,--.--,--.--,--.--,--.--,--.--,--.--,--.--,--.--,--.--,--.--,0,0.000,0.000,0.000,0.000,0.000,0.000,0.000,0.000,0.000,0.000,0.000,0.000,false,false,false,false,false,false,false,false,false,false,false,false,--.--,--.--,--.--,--.--,--.--,--.--,--.--,--.--,0,0,--.--,--.--,--.--,--.--,--.--,0,0,0,0,0.0000000,0.0000000,31NAA 66021 00000,--.--,--.--,0.0,0,0,--.--,--.--,,--.--,--.--,--.--,0,0,--.--,--.--,0,--.--,--.--,--.--,--.--,--.--,--.--,--.--,--.--,--.--,--.--,--.--,--.--,--.--,--.--,--.--,--.--,--.--,--.--,25.59,--.--,--.--,0,0,0.0,0.0,0.0,0,0,0,--.--,--.--,--.--
2025-02-26 12:04:13.705,-4.6,-3.8,247,0.0,0.0,0.0,0.0,0.0,0.000,-0.0,0.0,0.0,--.--,0.000,-327.343,0.000,0.000,0.0,00:00:54,0.0,0.0,0,--.--,0,0,--.--,0,30,0000:08:29,50.000,0.000,50.000,50.000,50.000,0.000,0.000,0.00,0,0,0,0.47,-159.66,-5127,--.--,--.--,--.--,--:--:--,1,-75.20,12:04:13,11:04:13,2/26/2025,--.--,--.--,--.--,--.--,--.--,--.--,--.--,--.--,--.--,--.--,--.--,--.--,0,--.--,--.--,--.--,--.--,--.--,--.--,--.--,--.--,--.--,--.--,--.--,--.--,--.--,--.--,--.--,--.--,0,0.000,0.000,0.000,0.000,0.000,0.000,0.000,0.000,0.000,0.000,0.000,0.000,false,false,false,false,false,false,false,false,false,false,false,false,--.--,--.--,--.--,--.--,--.--,--.--,--.--,--.--,0,0,--.--,--.--,--.--,--.--,--.--,0,0,0,0,0.0000000,0.0000000,31NAA 66021 00000,--.--,--.--,0.0,0,0,--.--,--.--,,--.--,--.--,--.--,0,0,--.--,--.--,0,--.--,--.--,--.--,--.--,--.--,--.--,--.--,--.--,--.--,--.--,--.--,--.--,--.--,--.--,--.--,--.--,--.--,--.--,25.63,--.--,--.--,0,0,0.0,0.0,0.0,0,0,0,--.--,--.--,--.--
2025-02-26 12:04:14.708,-4.6,-3.8,247,0.0,0.0,0.0,0.0,0.0,0.000,-0.0,0.0,0.0,--.--,0.000,-327.366,0.000,0.000,0.0,00:00:55,0.0,0.0,0,--.--,0,0,--.--,0,30,0000:08:29,50.000,0.000,50.000,50.000,50.000,0.000,0.000,0.00,0,0,0,0.47,-159.66,-5171,--.--,--.--,--.--,--:--:--,1,-75.20,12:04:14,11:04:14,2/26/2025,--.--,--.--,--.--,--.--,--.--,--.--,--.--,--.--,--.--,--.--,--.--,--.--,0,--.--,--.--,--.--,--.--,--.--,--.--,--.--,--.--,--.--,--.--,--.--,--.--,--.--,--.--,--.--,--.--,0,0.000,0.000,0.000,0.000,0.000,0.000,0.000,0.000,0.000,0.000,0.000,0.000,false,false,false,false,false,false,false,false,false,false,false,false,--.--,--.--,--.--,--.--,--.--,--.--,--.--,--.--,0,0,--.--,--.--,--.--,--.--,--.--,0,0,0,0,0.0000000,0.0000000,31NAA 66021 00000,--.--,--.--,0.0,0,0,--.--,--.--,,--.--,--.--,--.--,0,0,--.--,--.--,0,--.--,--.--,--.--,--.--,--.--,--.--,--.--,--.--,--.--,--.--,--.--,--.--,--.--,--.--,--.--,--.--,--.--,--.--,25.65,--.--,--.--,0,0,0.0,0.0,0.0,0,0,0,--.--,--.--,--.--
2025-02-26 12:04:15.701,-4.6,-3.7,247,0.0,0.0,0.0,0.0,0.0,0.000,-0.0,0.0,0.0,--.--,0.000,-327.343,0.000,0.000,0.0,00:00:56,0.0,0.0,0,--.--,0,0,--.--,0,30,0000:08:29,50.000,0.000,50.000,50.000,50.000,0.000,0.000,0.00,0,0,0,0.47,-159.65,-5198,--.--,--.--,--.--,--:--:--,1,-75.20,12:04:15,11:04:15,2/26/2025,--.--,--.--,--.--,--.--,--.--,--.--,--.--,--.--,--.--,--.--,--.--,--.--,0,--.--,--.--,--.--,--.--,--.--,--.--,--.--,--.--,--.--,--.--,--.--,--.--,--.--,--.--,--.--,--.--,0,0.000,0.000,0.000,0.000,0.000,0.000,0.000,0.000,0.000,0.000,0.000,0.000,false,false,false,false,false,false,false,false,false,false,false,false,--.--,--.--,--.--,--.--,--.--,--.--,--.--,--.--,0,0,--.--,--.--,--.--,--.--,--.--,0,0,0,0,0.0000000,0.0000000,31NAA 66021 00000,--.--,--.--,0.0,0,0,--.--,--.--,,--.--,--.--,--.--,0,0,--.--,--.--,0,--.--,--.--,--.--,--.--,--.--,--.--,--.--,--.--,--.--,--.--,--.--,--.--,--.--,--.--,--.--,--.--,--.--,--.--,25.68,--.--,--.--,0,0,0.0,0.0,0.0,0,0,0,--.--,--.--,--.--
